[
        {
            "name": "City Audi",
            "location": { "latitude": 37.768708, "longitude": -122.418123 },
			"focusLocation": { "zoom": 14}
        },
	        {
			
            "name": "Van Ness St. Station",
            "location": { "latitude": 37.786877, "longitude": -122.421782 },
			"focusLocation": { "zoom": 14}
        },
	      {
            "name": "Market St. Station",
            "location": { "latitude": 37.786696, "longitude": -122.404701 },
			"focusLocation": { "zoom": 14}
        },
		
	 {
            "name": "Mission Bay Station",
            "location": { "latitude": 37.773162, "longitude": -122.389530 },
			"focusLocation": { "zoom": 14}
        },
	
	 {
            "name": "Cole Valley Station",
            "location": { "latitude": 37.767037, "longitude": -122.448286 },
			"focusLocation": { "zoom": 14}
        },
	 {
            "name": "North Beach Station",
            "location": { "latitude": 37.802734, "longitude": -122.436343 },
			"focusLocation": { "zoom": 14}
        },
	 {
            "name": "Geary St. Station",
            "location": { "latitude": 37.781385, "longitude": -122.463293 },
			"focusLocation": { "zoom": 14}
        }
    ]